Lat,Long,Altitude,Pitch,Roll,Yaw,Time,Aileron,Elevator,Rudder,Airspeed,NAV1_HDEF,NAV1_VDEF,Heart Rate
37.780969808412806,-118.5810943808583,3470.328092537551,-9.246594429016113,-9.747884750366211,145.3983612060547,1739918325.4794817,0.0,0.0,0.0,55.205265045166016,0.0,0.0,0.0
37.780969808412806,-118.5810943808583,3470.328092537551,-9.246594429016113,-9.747884750366211,145.3983612060547,1739918325.73885,0.0,0.0,0.0,55.205265045166016,0.0,0.0,0.0
37.780969808412806,-118.5810943808583,3470.328092537551,-9.246594429016113,-9.747884750366211,145.3983612060547,1739918325.9706354,0.0,0.0,0.0,55.205265045166016,0.0,0.0,0.0
37.780969808412806,-118.5810943808583,3470.328092537551,-9.246594429016113,-9.747884750366211,145.3983612060547,1739918326.2186894,0.0,0.0,0.0,55.205265045166016,0.0,0.0,0.0
37.780969808412806,-118.5810943808583,3470.328092537551,-9.246594429016113,-9.747884750366211,145.3983612060547,1739918326.492631,0.0,0.0,0.0,55.205265045166016,0.0,0.0,0.0
37.780969808412806,-118.5810943808583,3470.328092537551,-9.246594429016113,-9.747884750366211,145.3983612060547,1739918326.7398696,0.0,0.0,0.0,55.205265045166016,0.0,0.0,0.0
37.780969808412806,-118.5810943808583,3470.328092537551,-9.246594429016113,-9.747884750366211,145.3983612060547,1739918326.9857492,0.0,0.0,0.0,55.205265045166016,0.0,0.0,0.0
37.780969808412806,-118.5810943808583,3470.328092537551,-9.246594429016113,-9.747884750366211,145.3983612060547,1739918327.2196128,0.0,0.0,0.0,55.205265045166016,0.0,0.0,0.0
37.780969808412806,-118.5810943808583,3470.328092537551,-9.246594429016113,-9.747884750366211,145.3983612060547,1739918327.490476,0.0,0.0,0.0,55.205265045166016,0.0,0.0,0.0
37.780969808412806,-118.5810943808583,3470.328092537551,-9.246594429016113,-9.747884750366211,145.3983612060547,1739918327.7357335,0.0,0.0,0.0,55.205265045166016,0.0,0.0,0.0
37.780969808412806,-118.5810943808583,3470.328092537551,-9.246594429016113,-9.747884750366211,145.3983612060547,1739918327.9952693,0.0,0.0,0.0,55.205265045166016,0.0,0.0,0.0
37.780969808412806,-118.5810943808583,3470.328092537551,-9.246594429016113,-9.747884750366211,145.3983612060547,1739918328.2518935,0.0,0.0,0.0,55.205265045166016,0.0,0.0,0.0
37.780969808412806,-118.5810943808583,3470.328092537551,-9.246594429016113,-9.747884750366211,145.3983612060547,1739918328.4947948,0.0,0.0,0.0,55.205265045166016,0.0,0.0,0.0
37.780969808412806,-118.5810943808583,3470.328092537551,-9.246594429016113,-9.747884750366211,145.3983612060547,1739918328.7397375,0.0,0.0,0.0,55.205265045166016,0.0,0.0,0.0
37.780969808412806,-118.5810943808583,3470.328092537551,-9.246594429016113,-9.747884750366211,145.3983612060547,1739918328.969751,0.0,0.0,0.0,55.205265045166016,0.0,0.0,0.0
37.780969808412806,-118.5810943808583,3470.328092537551,-9.246594429016113,-9.747884750366211,145.3983612060547,1739918329.241894,0.0,0.0,0.0,55.205265045166016,0.0,0.0,0.0
37.780969808412806,-118.5810943808583,3470.328092537551,-9.246594429016113,-9.747884750366211,145.3983612060547,1739918329.4859233,0.0,0.0,0.0,55.205265045166016,0.0,0.0,0.0
37.780969808412806,-118.5810943808583,3470.328092537551,-9.246594429016113,-9.747884750366211,145.3983612060547,1739918329.74486,0.0,0.0,0.0,55.205265045166016,0.0,0.0,0.0
37.780969808412806,-118.5810943808583,3470.328092537551,-9.246594429016113,-9.747884750366211,145.3983612060547,1739918329.9895985,0.0,0.0,0.0,55.205265045166016,0.0,0.0,0.0
37.780969808412806,-118.5810943808583,3470.328092537551,-9.246594429016113,-9.747884750366211,145.3983612060547,1739918330.2466724,0.0,0.0,0.0,55.205265045166016,0.0,0.0,0.0
37.780969808412806,-118.5810943808583,3470.328092537551,-9.246594429016113,-9.747884750366211,145.3983612060547,1739918330.4927156,0.0,0.0,0.0,55.205265045166016,0.0,0.0,0.0
37.780969808412806,-118.5810943808583,3470.328092537551,-9.246594429016113,-9.747884750366211,145.3983612060547,1739918330.7357178,0.0,0.0,0.0,55.205265045166016,0.0,0.0,0.0
37.780969808412806,-118.5810943808583,3470.328092537551,-9.246594429016113,-9.747884750366211,145.3983612060547,1739918330.991767,0.0,0.0,0.0,55.205265045166016,0.0,0.0,0.0
37.780969808412806,-118.5810943808583,3470.328092537551,-9.246594429016113,-9.747884750366211,145.3983612060547,1739918331.2466376,0.0,0.0,0.0,55.205265045166016,0.0,0.0,0.0
37.780969808412806,-118.5810943808583,3470.328092537551,-9.246594429016113,-9.747884750366211,145.3983612060547,1739918331.5026653,0.0,0.0,0.0,55.205265045166016,0.0,0.0,0.0
37.780969808412806,-118.5810943808583,3470.328092537551,-9.246594429016113,-9.747884750366211,145.3983612060547,1739918331.7457888,0.0,0.0,0.0,55.205265045166016,0.0,0.0,0.0
37.780969808412806,-118.5810943808583,3470.328092537551,-9.246594429016113,-9.747884750366211,145.3983612060547,1739918332.0027454,0.0,0.0,0.0,55.205265045166016,0.0,0.0,0.0
37.780969808412806,-118.5810943808583,3470.328092537551,-9.246594429016113,-9.747884750366211,145.3983612060547,1739918332.2556996,0.0,0.0,0.0,55.205265045166016,0.0,0.0,0.0
37.780969808412806,-118.5810943808583,3470.328092537551,-9.246594429016113,-9.747884750366211,145.3983612060547,1739918332.4857612,0.0,0.0,0.0,55.205265045166016,0.0,0.0,0.0
37.780969808412806,-118.5810943808583,3470.328092537551,-9.246594429016113,-9.747884750366211,145.3983612060547,1739918332.7565227,0.0,0.0,0.0,55.205265045166016,0.0,0.0,0.0
37.780969808412806,-118.5810943808583,3470.328092537551,-9.246594429016113,-9.747884750366211,145.3983612060547,1739918333.0018966,0.0,0.0,0.0,55.205265045166016,0.0,0.0,0.0
37.780969808412806,-118.5810943808583,3470.328092537551,-9.246594429016113,-9.747884750366211,145.3983612060547,1739918333.268532,0.0,0.0,0.0,55.205265045166016,0.0,0.0,0.0
37.780969808412806,-118.5810943808583,3470.328092537551,-9.246594429016113,-9.747884750366211,145.3983612060547,1739918333.4985013,0.0,0.0,0.0,55.205265045166016,0.0,0.0,0.0
37.780969808412806,-118.5810943808583,3470.328092537551,-9.246594429016113,-9.747884750366211,145.3983612060547,1739918333.7366314,0.0,0.0,0.0,55.205265045166016,0.0,0.0,0.0
37.780969808412806,-118.5810943808583,3470.328092537551,-9.246594429016113,-9.747884750366211,145.3983612060547,1739918334.009488,0.0,0.0,0.0,55.205265045166016,0.0,0.0,0.0
37.780969808412806,-118.5810943808583,3470.328092537551,-9.246594429016113,-9.747884750366211,145.3983612060547,1739918334.252599,0.0,0.0,0.0,55.205265045166016,0.0,0.0,0.0
37.780969808412806,-118.5810943808583,3470.328092537551,-9.246594429016113,-9.747884750366211,145.3983612060547,1739918334.5087137,0.0,0.0,0.0,55.205265045166016,0.0,0.0,0.0
37.780969808412806,-118.5810943808583,3470.328092537551,-9.246594429016113,-9.747884750366211,145.3983612060547,1739918334.7536762,0.0,0.0,0.0,55.205265045166016,0.0,0.0,0.0
37.780969808412806,-118.5810943808583,3470.328092537551,-9.246594429016113,-9.747884750366211,145.3983612060547,1739918334.9876301,0.0,0.0,0.0,55.205265045166016,0.0,0.0,0.0
37.780969808412806,-118.5810943808583,3470.328092537551,-9.246594429016113,-9.747884750366211,145.3983612060547,1739918335.2627628,0.0,0.0,0.0,55.205265045166016,0.0,0.0,0.0
37.780969808412806,-118.5810943808583,3470.328092537551,-9.246594429016113,-9.747884750366211,145.3983612060547,1739918335.5073907,0.0,0.0,0.0,55.205265045166016,0.0,0.0,0.0
37.780969808412806,-118.5810943808583,3470.328092537551,-9.246594429016113,-9.747884750366211,145.3983612060547,1739918335.7657,0.0,0.0,0.0,55.205265045166016,0.0,0.0,0.0
37.780969808412806,-118.5810943808583,3470.328092537551,-9.246594429016113,-9.747884750366211,145.3983612060547,1739918336.0077322,0.0,0.0,0.0,55.205265045166016,0.0,0.0,0.0
37.780969808412806,-118.5810943808583,3470.328092537551,-9.246594429016113,-9.747884750366211,145.3983612060547,1739918336.2704291,0.0,0.0,0.0,55.205265045166016,0.0,0.0,0.0
37.780969808412806,-118.5810943808583,3470.328092537551,-9.246594429016113,-9.747884750366211,145.3983612060547,1739918336.518737,0.0,0.0,0.0,55.205265045166016,0.0,0.0,0.0
37.780969808412806,-118.5810943808583,3470.328092537551,-9.246594429016113,-9.747884750366211,145.3983612060547,1739918336.7685654,0.0,0.0,0.0,55.205265045166016,0.0,0.0,0.0
37.780969808412806,-118.5810943808583,3470.328092537551,-9.246594429016113,-9.747884750366211,145.3983612060547,1739918337.0194983,0.0,0.0,0.0,55.205265045166016,0.0,0.0,0.0
37.780969808412806,-118.5810943808583,3470.328092537551,-9.246594429016113,-9.747884750366211,145.3983612060547,1739918337.2687628,0.0,0.0,0.0,55.205265045166016,0.0,0.0,0.0
37.780969808412806,-118.5810943808583,3470.328092537551,-9.246594429016113,-9.747884750366211,145.3983612060547,1739918337.5016205,0.0,0.0,0.0,55.205265045166016,0.0,0.0,0.0
37.780969808412806,-118.5810943808583,3470.328092537551,-9.246594429016113,-9.747884750366211,145.3983612060547,1739918337.7538052,0.0,0.0,0.0,55.205265045166016,0.0,0.0,0.0
37.780969808412806,-118.5810943808583,3470.328092537551,-9.246594429016113,-9.747884750366211,145.3983612060547,1739918338.0117116,0.0,0.0,0.0,55.205265045166016,0.0,0.0,0.0
37.780969808412806,-118.5810943808583,3470.328092537551,-9.246594429016113,-9.747884750366211,145.3983612060547,1739918338.2713354,0.0,0.0,0.0,55.205265045166016,0.0,0.0,0.0
37.780969808412806,-118.5810943808583,3470.328092537551,-9.246594429016113,-9.747884750366211,145.3983612060547,1739918338.5186903,0.0,0.0,0.0,55.205265045166016,0.0,0.0,0.0
37.780969808412806,-118.5810943808583,3470.328092537551,-9.246594429016113,-9.747884750366211,145.3983612060547,1739918338.7856488,0.0,0.0,0.0,55.205265045166016,0.0,0.0,0.0
37.780969808412806,-118.5810943808583,3470.328092537551,-9.246594429016113,-9.747884750366211,145.3983612060547,1739918339.0195348,0.0,0.0,0.0,55.205265045166016,0.0,0.0,0.0
37.780969808412806,-118.5810943808583,3470.328092537551,-9.246594429016113,-9.747884750366211,145.3983612060547,1739918339.2704482,0.0,0.0,0.0,55.205265045166016,0.0,0.0,0.0
37.780969808412806,-118.5810943808583,3470.328092537551,-9.246594429016113,-9.747884750366211,145.3983612060547,1739918339.5193436,0.0,0.0,0.0,55.205265045166016,0.0,0.0,0.0
37.780969808412806,-118.5810943808583,3470.328092537551,-9.246594429016113,-9.747884750366211,145.3983612060547,1739918339.7703176,0.0,0.0,0.0,55.205265045166016,0.0,0.0,0.0
37.780969808412806,-118.5810943808583,3470.328092537551,-9.246594429016113,-9.747884750366211,145.3983612060547,1739918340.0197144,0.0,0.0,0.0,55.205265045166016,0.0,0.0,0.0
37.780969808412806,-118.5810943808583,3470.328092537551,-9.246594429016113,-9.747884750366211,145.3983612060547,1739918340.269812,0.0,0.0,0.0,55.205265045166016,0.0,0.0,0.0
37.780969808412806,-118.5810943808583,3470.328092537551,-9.246594429016113,-9.747884750366211,145.3983612060547,1739918340.5193229,0.0,0.0,0.0,55.205265045166016,0.0,0.0,0.0
37.780969808412806,-118.5810943808583,3470.328092537551,-9.246594429016113,-9.747884750366211,145.3983612060547,1739918340.7687883,0.0,0.0,0.0,55.205265045166016,0.0,0.0,0.0
37.780969808412806,-118.5810943808583,3470.328092537551,-9.246594429016113,-9.747884750366211,145.3983612060547,1739918341.0185485,0.0,0.0,0.0,55.205265045166016,0.0,0.0,0.0
37.780969808412806,-118.5810943808583,3470.328092537551,-9.246594429016113,-9.747884750366211,145.3983612060547,1739918341.2693202,0.0,0.0,0.0,55.205265045166016,0.0,0.0,0.0
37.780969808412806,-118.5810943808583,3470.328092537551,-9.246594429016113,-9.747884750366211,145.3983612060547,1739918341.5193536,0.0,0.0,0.0,55.205265045166016,0.0,0.0,0.0
37.780969808412806,-118.5810943808583,3470.328092537551,-9.246594429016113,-9.747884750366211,145.3983612060547,1739918341.780578,0.0,0.0,0.0,55.205265045166016,0.0,0.0,0.0
37.780969808412806,-118.5810943808583,3470.328092537551,-9.246594429016113,-9.747884750366211,145.3983612060547,1739918342.045457,0.0,0.0,0.0,55.205265045166016,0.0,0.0,0.0
37.780969808412806,-118.5810943808583,3470.328092537551,-9.246594429016113,-9.747884750366211,145.3983612060547,1739918342.2705758,0.0,0.0,0.0,55.205265045166016,0.0,0.0,0.0
37.780969808412806,-118.5810943808583,3470.328092537551,-9.246594429016113,-9.747884750366211,145.3983612060547,1739918342.5185404,0.0,0.0,0.0,55.205265045166016,0.0,0.0,0.0
37.780969808412806,-118.5810943808583,3470.328092537551,-9.246594429016113,-9.747884750366211,145.3983612060547,1739918342.7936597,0.0,0.0,0.0,55.205265045166016,0.0,0.0,0.0
37.780969808412806,-118.5810943808583,3470.328092537551,-9.246594429016113,-9.747884750366211,145.3983612060547,1739918343.0383031,0.0,0.0,0.0,55.205265045166016,0.0,0.0,0.0
37.780969808412806,-118.5810943808583,3470.328092537551,-9.246594429016113,-9.747884750366211,145.3983612060547,1739918343.2707188,0.0,0.0,0.0,55.205265045166016,0.0,0.0,0.0
37.780969808412806,-118.5810943808583,3470.328092537551,-9.246594429016113,-9.747884750366211,145.3983612060547,1739918343.519265,0.0,0.0,0.0,55.205265045166016,0.0,0.0,0.0
37.780969808412806,-118.5810943808583,3470.328092537551,-9.246594429016113,-9.747884750366211,145.3983612060547,1739918343.7934394,0.0,0.0,0.0,55.205265045166016,0.0,0.0,0.0
37.780969808412806,-118.5810943808583,3470.328092537551,-9.246594429016113,-9.747884750366211,145.3983612060547,1739918344.0366285,0.0,0.0,0.0,55.205265045166016,0.0,0.0,0.0
37.780969808412806,-118.5810943808583,3470.328092537551,-9.246594429016113,-9.747884750366211,145.3983612060547,1739918344.2854278,0.0,0.0,0.0,55.205265045166016,0.0,0.0,0.0
37.780969808412806,-118.5810943808583,3470.328092537551,-9.246594429016113,-9.747884750366211,145.3983612060547,1739918344.5474231,0.0,0.0,0.0,55.205265045166016,0.0,0.0,0.0
37.780969808412806,-118.5810943808583,3470.328092537551,-9.246594429016113,-9.747884750366211,145.3983612060547,1739918344.7953827,0.0,0.0,0.0,55.205265045166016,0.0,0.0,0.0
37.780969808412806,-118.5810943808583,3470.328092537551,-9.246594429016113,-9.747884750366211,145.3983612060547,1739918345.0447447,0.0,0.0,0.0,55.205265045166016,0.0,0.0,0.0
37.780969808412806,-118.5810943808583,3470.328092537551,-9.246594429016113,-9.747884750366211,145.3983612060547,1739918345.3016446,0.0,0.0,0.0,55.205265045166016,0.0,0.0,0.0
37.780969808412806,-118.5810943808583,3470.328092537551,-9.246594429016113,-9.747884750366211,145.3983612060547,1739918345.534865,0.0,0.0,0.0,55.205265045166016,0.0,0.0,0.0
37.780969808412806,-118.5810943808583,3470.328092537551,-9.246594429016113,-9.747884750366211,145.3983612060547,1739918345.796653,0.0,0.0,0.0,55.205265045166016,0.0,0.0,0.0
37.780969808412806,-118.5810943808583,3470.328092537551,-9.246594429016113,-9.747884750366211,145.3983612060547,1739918346.0440729,0.0,0.0,0.0,55.205265045166016,0.0,0.0,0.0
37.780969808412806,-118.5810943808583,3470.328092537551,-9.246594429016113,-9.747884750366211,145.3983612060547,1739918346.3053699,0.0,0.0,0.0,55.205265045166016,0.0,0.0,0.0
37.780969808412806,-118.5810943808583,3470.328092537551,-9.246594429016113,-9.747884750366211,145.3983612060547,1739918346.5374165,0.0,0.0,0.0,55.205265045166016,0.0,0.0,0.0
37.780969808412806,-118.5810943808583,3470.328092537551,-9.246594429016113,-9.747884750366211,145.3983612060547,1739918346.7962227,0.0,0.0,0.0,55.205265045166016,0.0,0.0,0.0
37.780969808412806,-118.5810943808583,3470.328092537551,-9.246594429016113,-9.747884750366211,145.3983612060547,1739918347.0662625,0.0,0.0,0.0,55.205265045166016,0.0,0.0,0.0
37.780969808412806,-118.5810943808583,3470.328092537551,-9.246594429016113,-9.747884750366211,145.3983612060547,1739918347.3107297,0.0,0.0,0.0,55.205265045166016,0.0,0.0,0.0
37.780969808412806,-118.5810943808583,3470.328092537551,-9.246594429016113,-9.747884750366211,145.3983612060547,1739918347.5554783,0.0,0.0,0.0,55.205265045166016,0.0,0.0,0.0
37.780969808412806,-118.5810943808583,3470.328092537551,-9.246594429016113,-9.747884750366211,145.3983612060547,1739918347.78642,0.0,0.0,0.0,55.205265045166016,0.0,0.0,0.0
37.780969808412806,-118.5810943808583,3470.328092537551,-9.246594429016113,-9.747884750366211,145.3983612060547,1739918348.0594447,0.0,0.0,0.0,55.205265045166016,0.0,0.0,0.0
37.780969808412806,-118.5810943808583,3470.328092537551,-9.246594429016113,-9.747884750366211,145.3983612060547,1739918348.3056762,0.0,0.0,0.0,55.205265045166016,0.0,0.0,0.0
37.780969808412806,-118.5810943808583,3470.328092537551,-9.246594429016113,-9.747884750366211,145.3983612060547,1739918348.5513859,0.0,0.0,0.0,55.205265045166016,0.0,0.0,0.0
37.780969808412806,-118.5810943808583,3470.328092537551,-9.246594429016113,-9.747884750366211,145.3983612060547,1739918348.8104715,0.0,0.0,0.0,55.205265045166016,0.0,0.0,0.0
37.780969808412806,-118.5810943808583,3470.328092537551,-9.246594429016113,-9.747884750366211,145.3983612060547,1739918349.0533335,0.0,0.0,0.0,55.205265045166016,0.0,0.0,0.0
37.780969808412806,-118.5810943808583,3470.328092537551,-9.246594429016113,-9.747884750366211,145.3983612060547,1739918349.3114667,0.0,0.0,0.0,55.205265045166016,0.0,0.0,0.0
37.780969808412806,-118.5810943808583,3470.328092537551,-9.246594429016113,-9.747884750366211,145.3983612060547,1739918349.5562973,0.0,0.0,0.0,55.205265045166016,0.0,0.0,0.0
37.780969808412806,-118.5810943808583,3470.328092537551,-9.246594429016113,-9.747884750366211,145.3983612060547,1739918349.8026283,0.0,0.0,0.0,55.205265045166016,0.0,0.0,0.0
37.780969808412806,-118.5810943808583,3470.328092537551,-9.246594429016113,-9.747884750366211,145.3983612060547,1739918350.0593717,0.0,0.0,0.0,55.205265045166016,0.0,0.0,0.0
37.780969808412806,-118.5810943808583,3470.328092537551,-9.246594429016113,-9.747884750366211,145.3983612060547,1739918350.3026373,0.0,0.0,0.0,55.205265045166016,0.0,0.0,0.0
37.780969808412806,-118.5810943808583,3470.328092537551,-9.246594429016113,-9.747884750366211,145.3983612060547,1739918350.5616434,0.0,0.0,0.0,55.205265045166016,0.0,0.0,0.0
37.780969808412806,-118.5810943808583,3470.328092537551,-9.246594429016113,-9.747884750366211,145.3983612060547,1739918350.8025382,0.0,0.0,0.0,55.205265045166016,0.0,0.0,0.0
37.780969808412806,-118.5810943808583,3470.328092537551,-9.246594429016113,-9.747884750366211,145.3983612060547,1739918351.0727522,0.0,0.0,0.0,55.205265045166016,0.0,0.0,0.0
37.780969808412806,-118.5810943808583,3470.328092537551,-9.246594429016113,-9.747884750366211,145.3983612060547,1739918351.3223917,0.0,0.0,0.0,55.205265045166016,0.0,0.0,0.0
37.780969808412806,-118.5810943808583,3470.328092537551,-9.246594429016113,-9.747884750366211,145.3983612060547,1739918351.5724645,0.0,0.0,0.0,55.205265045166016,0.0,0.0,0.0
37.780969808412806,-118.5810943808583,3470.328092537551,-9.246594429016113,-9.747884750366211,145.3983612060547,1739918351.8224108,0.0,0.0,0.0,55.205265045166016,0.0,0.0,0.0
37.780969808412806,-118.5810943808583,3470.328092537551,-9.246594429016113,-9.747884750366211,145.3983612060547,1739918352.0715818,0.0,0.0,0.0,55.205265045166016,0.0,0.0,0.0
37.780969808412806,-118.5810943808583,3470.328092537551,-9.246594429016113,-9.747884750366211,145.3983612060547,1739918352.321512,0.0,0.0,0.0,55.205265045166016,0.0,0.0,0.0
37.78093250940377,-118.58106195360455,3469.1137749788704,-9.178827285766602,-10.190605163574219,144.9796600341797,1739918352.5722094,0.0,0.0,0.0,56.96358871459961,0.0,0.0,0.0
37.78085745085424,-118.58099569590217,3466.635502917318,-8.606756210327148,-10.450606346130371,144.00161743164062,1739918352.8250487,0.0,0.0,0.0,59.12864685058594,0.0,0.0,0.0
37.780781442447115,-118.58092702833551,3464.155309306055,-7.678865432739258,-10.335066795349121,142.97178649902344,1739918353.0737746,0.0,0.0,0.0,60.85775375366211,0.0,0.0,0.0
37.78070670224326,-118.58085776881816,3461.8470673113275,-6.912367343902588,-10.275049209594727,141.86936950683594,1739918353.322322,0.0,0.18110203742980957,0.0,62.25333786010742,0.0,0.0,0.0
37.78063141666152,-118.58078632439727,3459.6415968900405,-6.0413818359375,-7.829636573791504,140.58218383789062,1739918353.5724921,0.03936970233917236,0.4960627555847168,0.0,63.38425827026367,0.0,0.0,0.0
37.78055577944274,-118.58071314405422,3457.5519212503227,-4.958925724029541,-5.7811198234558105,138.936279296875,1739918353.8232856,-3.5762786865234375e-07,-3.5762786865234375e-07,0.0,64.5025863647461,0.0,0.0,0.0
37.78048039572026,-118.58063894234864,3455.586072237518,-3.926448106765747,-6.880186557769775,137.3549041748047,1739918354.0723236,-3.5762786865234375e-07,-3.5762786865234375e-07,0.0,65.5157241821289,0.0,0.0,0.0
37.780405221896345,-118.58056330612456,3453.745852638874,-2.5725061893463135,-8.652120590209961,136.27684020996094,1739918354.321246,-3.5762786865234375e-07,0.22047209739685059,0.0,66.1206283569336,0.0,0.0,0.0
37.78032785926098,-118.58048318949994,3452.031462017463,-1.323588490486145,-8.184618949890137,135.8753204345703,1739918354.5672758,0.07086575031280518,0.3937005400657654,0.0,66.38790893554688,0.0,0.0,0.0
37.78025574603191,-118.58040640145529,3450.644513350035,-0.1660320907831192,-5.274422645568848,135.98361206054688,1739918354.8235815,0.007873594760894775,0.3622044324874878,0.0,66.47911071777344,0.0,0.0,0.0
37.78018338590197,-118.58032790924135,3449.5344857118707,0.2349376082420349,-1.7856500148773193,136.24440002441406,1739918355.0672572,-0.03906285762786865,-3.5762786865234375e-07,0.0,66.5669937133789,0.0,0.0,0.0
37.78010735768806,-118.58024469821984,3448.656805415352,-0.12954556941986084,-0.7379207611083984,136.48428344726562,1739918355.3265755,-0.12500029802322388,-3.5762786865234375e-07,0.0,66.79804229736328,0.0,0.0,0.0
37.78003063076449,-118.58016030533513,3447.9709285617964,-1.02927565574646,-1.2175089120864868,136.85498046875,1739918355.5895643,-0.09375029802322388,0.10236185789108276,0.0,66.88682556152344,0.0,0.0,0.0
37.77995686109028,-118.58007877804697,3447.3980150199072,-1.4314775466918945,-1.0819003582000732,137.31161499023438,1739918355.83842,0.007873594760894775,0.4803147315979004,0.0,66.79133605957031,0.0,0.0,0.0
37.77988325991103,-118.57999713116169,3446.83695536408,-0.758872926235199,0.777891218662262,137.7779541015625,1739918356.0893505,-3.5762786865234375e-07,0.13385790586471558,0.0,66.63947296142578,0.0,0.0,0.0
37.779809829057285,-118.57991556128312,3446.270822330143,0.5278401970863342,0.8858267664909363,138.32113647460938,1739918356.3394516,-3.5762786865234375e-07,0.007873594760894775,0.0,66.44053649902344,0.0,0.0,0.0
37.77973637482163,-118.57983403006378,3445.7571639305843,2.172909736633301,1.4431953430175781,139.0132293701172,1739918356.5896084,-3.5762786865234375e-07,0.4094485640525818,0.0,66.36469268798828,0.0,0.0,0.0
37.779662975948575,-118.57975291901846,3445.380916538635,3.5184271335601807,4.044024467468262,139.54537963867188,1739918356.8385482,-0.08593779802322388,-3.5762786865234375e-07,0.0,66.59129333496094,0.0,0.0,0.0
37.77958931427598,-118.57967233947979,3445.1730152116165,3.8625049591064453,4.232278823852539,139.82630920410156,1739918357.0896,-0.2421877384185791,-3.5762786865234375e-07,0.0,66.90949249267578,0.0,0.0,0.0
37.77951590188075,-118.57959295888013,3445.0644680391856,3.1546220779418945,3.089977502822876,139.86151123046875,1739918357.3393533,-0.3593752384185791,-3.5762786865234375e-07,0.0,67.16946411132812,0.0,0.0,0.0
37.779442338482774,-118.57951411782578,3444.952358740495,1.6492327451705933,0.9573050737380981,139.46487426757812,1739918357.5874443,-0.3671877384185791,-3.5762786865234375e-07,0.0,67.45519256591797,0.0,0.0,0.0
37.77937012969613,-118.57943692148883,3444.734956373467,0.14068016409873962,0.3043486475944519,138.98516845703125,1739918357.8191288,-0.1953127384185791,0.14960592985153198,0.0,67.64263916015625,0.0,0.0,0.0
37.77930102968272,-118.57936302858553,3444.40017331146,-0.14191167056560516,2.2367258071899414,138.67449951171875,1739918358.0675466,-0.2578127980232239,0.18110203742980957,0.0,67.8446044921875,0.0,0.0,0.0
37.77922057161263,-118.57927723500522,3443.9468975698906,0.15811917185783386,4.427147388458252,138.5552978515625,1739918358.3349905,-0.14062529802322388,0.3937005400657654,0.0,68.21076965332031,0.0,0.0,0.0
37.77914768086812,-118.57920016686322,3443.5556742118556,0.7760069370269775,6.662775993347168,138.5892791748047,1739918358.5954008,-0.14062529802322388,0.03936970233917236,0.0,68.42285919189453,0.0,0.0,0.0
37.77907675233241,-118.57912601580382,3443.188637857084,1.2885769605636597,6.802112579345703,138.70545959472656,1739918358.8374238,-0.08593779802322388,0.03936970233917236,0.0,68.3347396850586,0.0,0.0,0.0
37.77900051452283,-118.57904711093785,3442.7641159152276,1.974714756011963,6.079190731048584,139.2286376953125,1739918359.0982094,-0.07031279802322388,0.03936970233917236,0.0,67.99325561523438,0.0,0.0,0.0
37.778928698795106,-118.5789734910233,3442.3429314863206,3.030290365219116,5.106561183929443,140.07843017578125,1739918359.3416617,-0.07031279802322388,0.03936970233917236,0.0,67.53653717041016,0.0,0.0,0.0
37.77885698210691,-118.57890070352745,3441.976195927766,4.006317138671875,4.343365669250488,141.11415100097656,1739918359.5861256,-0.07031279802322388,0.03936970233917236,0.0,67.17758178710938,0.0,0.0,0.0
37.77878008446291,-118.57882357712629,3441.665030578096,5.019392967224121,4.862128734588623,142.2281494140625,1739918359.8354254,-0.007812857627868652,0.03936970233917236,0.007873594760894775,66.67424011230469,0.0,0.0,0.0
37.77870696176973,-118.57875130466513,3441.4525723260776,5.7964677810668945,5.772611618041992,143.00399780273438,1739918360.085215,-0.10937529802322388,0.007873594760894775,-3.5762786865234375e-07,65.93849182128906,0.0,0.0,0.0
37.77863340824053,-118.57867981343878,3441.3076383744947,5.7107648849487305,6.572152137756348,143.3494415283203,1739918360.3343434,-0.2812502980232239,-3.5762786865234375e-07,-3.5762786865234375e-07,65.2276840209961,0.0,0.0,0.0
37.7785556005464,-118.5786055675559,3441.1766044646283,4.544430255889893,6.967128753662109,143.16363525390625,1739918360.584517,-0.2578127980232239,-3.5762786865234375e-07,-3.5762786865234375e-07,64.7687759399414,0.0,0.0,0.0
37.778471334136775,-118.57852674486425,3441.02212616116,2.9386398792266846,6.805429458618164,142.4567108154297,1739918360.8732297,-0.5546876192092896,-0.2265627384185791,-3.5762786865234375e-07,64.51240539550781,0.0,0.0,0.0
37.778385036962774,-118.5784476016181,3440.870264580221,0.3686988055706024,4.599552154541016,141.3675994873047,1739918361.1022263,-0.2968752980232239,-0.007812857627868652,-3.5762786865234375e-07,64.42010498046875,0.0,0.0,0.0
37.77830930694105,-118.57837899585095,3440.7196975696947,-1.4412792921066284,2.246403932571411,140.5264129638672,1739918361.3371189,-0.10937529802322388,-3.5762786865234375e-07,-3.5762786865234375e-07,64.51322174072266,0.0,0.0,0.0
37.77822915816409,-118.57830672921806,3440.4819771220373,-1.9126739501953125,-0.1452801376581192,139.79185485839844,1739918361.5864818,-3.5762786865234375e-07,-3.5762786865234375e-07,-3.5762786865234375e-07,64.81753540039062,0.0,0.0,0.0
37.778136943853816,-118.57822353496601,3440.1394113277515,-0.5650624632835388,-1.3486775159835815,139.16754150390625,1739918361.8616068,-3.5762786865234375e-07,-3.5762786865234375e-07,-3.5762786865234375e-07,65.51554870605469,0.0,0.0,0.0
37.77805535444541,-118.57814958641379,3439.8826359511704,1.5409506559371948,-2.101621389389038,138.7894287109375,1739918362.106445,0.05511772632598877,0.5905511379241943,-3.5762786865234375e-07,66.56355285644531,0.0,0.0,0.0
37.777967996516196,-118.57806992760442,3439.760221631421,4.2588419914245605,-0.9721876382827759,138.382568359375,1739918362.3633397,-3.5762786865234375e-07,-3.5762786865234375e-07,-3.5762786865234375e-07,67.37368774414062,0.0,0.0,0.0
37.7778906499208,-118.57799898767118,3439.864217356049,5.984586238861084,-1.7311724424362183,138.2179718017578,1739918362.6092398,-3.5762786865234375e-07,0.6929134130477905,-3.5762786865234375e-07,67.84564208984375,0.0,0.0,0.0
37.77781239886569,-118.57792689849609,3440.16620393721,6.587162971496582,-0.0040847379714250565,138.22581481933594,1739918362.8551881,-0.3437502384185791,0.007873594760894775,-3.5762786865234375e-07,67.97269439697266,0.0,0.0,0.0
37.77772698162489,-118.57784819600674,3440.675878026685,4.988638877868652,-1.5368437767028809,138.114990234375,1739918363.1005616,-0.14062529802322388,-3.5762786865234375e-07,-3.5762786865234375e-07,67.81278991699219,0.0,0.0,0.0
37.77765159589212,-118.57777844697443,3441.10949208,3.821448802947998,-3.498438596725464,138.17599487304688,1739918363.359159,-0.17187529802322388,-3.5762786865234375e-07,-3.5762786865234375e-07,67.37059783935547,0.0,0.0,0.0
37.7775745706653,-118.57770662466594,3441.4179950741172,3.257681131362915,-5.2279510498046875,138.4082489013672,1739918363.6042125,-0.17187529802322388,-3.5762786865234375e-07,-3.5762786865234375e-07,66.56624603271484,0.0,0.0,0.0
37.777491545833804,-118.57762836927124,3441.539952373585,3.40454363822937,-6.572352886199951,138.7281951904297,1739918363.863241,-0.03906285762786865,0.3464564085006714,-3.5762786865234375e-07,65.44050598144531,0.0,0.0,0.0
37.777417076861,-118.57755737226272,3441.4773852195126,4.48676061630249,-5.401094436645508,138.7502899169922,1739918364.1060643,-0.07031279802322388,0.4094485640525818,-3.5762786865234375e-07,63.96662521362305,0.0,0.0,0.0
37.77733520498157,-118.57747860734639,3441.251739440824,5.876441478729248,-4.223305702209473,138.2849884033203,1739918364.350301,-0.12500029802322388,0.2677162289619446,-3.5762786865234375e-07,62.60871124267578,0.0,0.0,0.0
37.77726167955258,-118.57740730762188,3440.957597250932,6.630363464355469,-2.300039529800415,137.7109375,1739918364.61105,-0.17187529802322388,0.2677162289619446,-3.5762786865234375e-07,61.354976654052734,0.0,0.0,0.0
37.77718600023646,-118.57733353995907,3440.5941512834684,6.803192615509033,0.19823473691940308,137.11033630371094,1739918364.868079,-0.17968779802322388,0.16535401344299316,-3.5762786865234375e-07,60.172943115234375,0.0,0.0,0.0
37.77711552187642,-118.57726492396536,3440.176991448778,6.570667743682861,3.621859073638916,136.6342315673828,1739918365.1006277,-0.4843751788139343,0.3937005400657654,-3.5762786865234375e-07,59.3629264831543,0.0,0.0,0.0
37.77703723894191,-118.57718941379636,3439.6122441219254,4.791007041931152,8.362689018249512,135.9208221435547,1739918365.3623323,-0.4609376788139343,-3.5762786865234375e-07,-3.5762786865234375e-07,58.78334426879883,0.0,0.0,0.0
37.77696207731239,-118.57711798397243,3438.85495809379,2.4731578826904297,9.614237785339355,135.2424774169922,1739918365.6224654,-0.5000001788139343,-0.03906285762786865,-3.5762786865234375e-07,58.22244644165039,0.0,0.0,0.0
37.77688784454723,-118.5770484432581,3437.822738135611,0.07147196680307388,8.721402168273926,134.7565155029297,1739918365.8671646,-0.4609376788139343,-3.5762786865234375e-07,-3.5762786865234375e-07,57.688846588134766,0.0,0.0,0.0
37.77681697903536,-118.57698275445968,3436.5617989818743,-2.112267017364502,6.905080318450928,134.61572265625,1739918366.1011596,-0.3984377384185791,-0.10937529802322388,-3.5762786865234375e-07,57.07103729248047,0.0,0.0,0.0
37.77673551640974,-118.57690777637481,3434.8070336531796,-3.7793266773223877,5.270807266235352,135.0715789794922,1739918366.3754234,-0.007812857627868652,-3.5762786865234375e-07,-3.5762786865234375e-07,56.531463623046875,0.0,0.0,0.0
37.77666326356918,-118.57684154406954,3433.0387287035633,-3.7091221809387207,4.679526329040527,136.0709991455078,1739918366.622454,-3.5762786865234375e-07,-3.5762786865234375e-07,-3.5762786865234375e-07,56.165374755859375,0.0,0.0,0.0
37.776587947707675,-118.57677266882222,3431.0884670331743,-3.0869832038879395,3.386810064315796,137.57521057128906,1739918366.8680766,-3.5762786865234375e-07,-3.5762786865234375e-07,-3.5762786865234375e-07,55.66887283325195,0.0,0.0,0.0
37.77651125982552,-118.57670266534338,3429.1311621549003,-2.8624515533447266,2.1478683948516846,139.43060302734375,1739918367.1012492,-3.5762786865234375e-07,-3.5762786865234375e-07,-3.5762786865234375e-07,55.145565032958984,0.0,0.0,0.0
37.776432995645145,-118.57663129845152,3427.251136788118,-3.6701738834381104,0.25901564955711365,141.38607788085938,1739918367.3730369,-0.2421877384185791,-0.3437502384185791,-3.5762786865234375e-07,54.664161682128906,0.0,0.0,0.0
37.77635542323362,-118.57656051307868,3425.494714668009,-5.8297600746154785,-0.603188693523407,143.42803955078125,1739918367.6180818,-0.007812857627868652,-3.5762786865234375e-07,-3.5762786865234375e-07,54.73035430908203,0.0,0.0,0.0
37.77627232018961,-118.57648469933994,3423.6045715759706,-7.39297342300415,0.7406732439994812,145.29794311523438,1739918367.8754597,-0.007812857627868652,0.3622044324874878,-3.5762786865234375e-07,55.53494644165039,0.0,0.0,0.0
37.77618823568397,-118.5764084758721,3421.5799357737988,-7.571478366851807,2.2743232250213623,146.2977294921875,1739918368.1180549,-3.5762786865234375e-07,-3.5762786865234375e-07,-3.5762786865234375e-07,56.73278045654297,0.0,0.0,0.0
37.776111616076044,-118.57633968714902,3419.605809580835,-6.450357437133789,2.283630847930908,146.47801208496094,1739918368.3763454,0.08661377429962158,-3.5762786865234375e-07,-3.5762786865234375e-07,57.69066619873047,0.0,0.0,0.0
37.77603239276713,-118.57626929506623,3417.531938132468,-4.269747734069824,3.2619524002075195,146.2782440185547,1739918368.6189706,-3.5762786865234375e-07,-0.2734377980232239,-3.5762786865234375e-07,58.55252456665039,0.0,0.0,0.0
37.77594432507921,-118.57619199245129,3415.385000968026,-2.438310384750366,3.586777925491333,145.9713592529297,1739918368.8773232,-3.5762786865234375e-07,-3.5762786865234375e-07,-3.5762786865234375e-07,58.94001770019531,0.0,0.0,0.0
37.77586425259726,-118.57612261747755,3413.679211835709,-2.045881986618042,4.173106670379639,145.73480224609375,1739918369.1193316,-3.5762786865234375e-07,-3.5762786865234375e-07,-3.5762786865234375e-07,58.93659210205078,0.0,0.0,0.0
37.77577255092351,-118.57604423356007,3411.9804381092504,-2.9061834812164307,3.811255931854248,145.30538940429688,1739918369.3771322,-0.2265627384185791,-0.6406251788139343,-3.5762786865234375e-07,58.7265739440918,0.0,0.0,0.0
37.775690340981484,-118.57597466281489,3410.5919381854706,-4.618531227111816,1.1301543712615967,145.01026916503906,1739918369.6193507,-3.5762786865234375e-07,-3.5762786865234375e-07,-3.5762786865234375e-07,58.773250579833984,0.0,0.0,0.0
37.77559783038198,-118.57589667297322,3409.0633766213523,-5.5910563468933105,0.841153621673584,144.79966735839844,1739918369.8769846,-3.5762786865234375e-07,-3.5762786865234375e-07,-3.5762786865234375e-07,59.17848205566406,0.0,0.0,0.0
37.77550925700236,-118.57582211009698,3407.6243671365814,-5.38876485824585,1.0818196535110474,144.6307373046875,1739918370.1346133,-3.5762786865234375e-07,-3.5762786865234375e-07,-3.5762786865234375e-07,59.91147994995117,0.0,0.0,0.0
37.77542213847293,-118.57574883791754,3406.2663138597077,-4.727407455444336,0.6052583456039429,144.58200073242188,1739918370.3771331,-3.5762786865234375e-07,-3.5762786865234375e-07,-3.5762786865234375e-07,60.799930572509766,0.0,0.0,0.0
37.7753374101362,-118.57567755091301,3404.980623304139,-3.7190513610839844,-0.025067394599318504,144.6710662841797,1739918370.6190116,-3.5762786865234375e-07,-3.5762786865234375e-07,-3.5762786865234375e-07,61.60150146484375,0.0,0.0,0.0
37.775238232669246,-118.57559391477228,3403.493897602864,-2.2493700981140137,0.06757982075214386,145.06886291503906,1739918370.8920872,-0.15625029802322388,-3.5762786865234375e-07,-3.5762786865234375e-07,61.879547119140625,0.0,0.0,0.0
37.77515218506054,-118.57552134434631,3402.321348003228,-1.9250853061676025,0.5539327263832092,145.49537658691406,1739918371.1362145,-0.12500029802322388,0.3937005400657654,-3.5762786865234375e-07,62.04772186279297,0.0,0.0,0.0
37.77505674187191,-118.57544127953565,3401.217602939371,-2.4584193229675293,2.3831348419189453,145.51467895507812,1739918371.395519,-0.07031279802322388,-3.5762786865234375e-07,-3.5762786865234375e-07,62.26789474487305,0.0,0.0,0.0
37.774968029452744,-118.57536767918738,3400.3572097864003,-3.1980180740356445,2.887378454208374,144.96347045898438,1739918371.6394172,-0.17187529802322388,-0.2578127980232239,-3.5762786865234375e-07,62.82278060913086,0.0,0.0,0.0
37.774878965835256,-118.57529456311941,3399.5656846219213,-3.7802929878234863,2.8497064113616943,143.98617553710938,1739918371.8856542,-0.05468785762786865,-3.5762786865234375e-07,-3.5762786865234375e-07,63.54621505737305,0.0,0.0,0.0
37.774786951471526,-118.57521943396135,3398.732914902783,-3.1627278327941895,2.932518482208252,143.08961486816406,1739918372.1358042,-0.007812857627868652,-3.5762786865234375e-07,-3.5762786865234375e-07,64.26082611083984,0.0,0.0,0.0
37.774694882186175,-118.57514458125236,3397.938041844361,-1.5203596353530884,3.2847023010253906,142.51112365722656,1739918372.386355,-3.5762786865234375e-07,-3.5762786865234375e-07,-3.5762786865234375e-07,64.94563293457031,0.0,0.0,0.0
37.774602449229654,-118.575069612224,3397.2913892705415,0.20954671502113342,4.042177677154541,142.61770629882812,1739918372.6360865,-3.5762786865234375e-07,-3.5762786865234375e-07,-3.5762786865234375e-07,65.67633819580078,0.0,0.0,0.0
37.77450148094451,-118.57498794599366,3396.8325599693776,1.848602533340454,5.216755390167236,143.83148193359375,1739918372.8950052,-0.023437857627868652,0.2519682049751282,-3.5762786865234375e-07,66.3192138671875,0.0,0.0,0.0
37.774410241435035,-118.57491471679516,3396.6759816453687,2.5841903686523438,7.607483863830566,145.69900512695312,1739918373.137065,-0.07031279802322388,-3.5762786865234375e-07,-3.5762786865234375e-07,66.8387222290039,0.0,0.0,0.0
37.774315948499,-118.5748402848745,3396.7369402705385,2.7489287853240967,8.315145492553711,147.9058074951172,1739918373.386107,-0.07031279802322388,-3.5762786865234375e-07,-3.5762786865234375e-07,67.61746215820312,0.0,0.0,0.0
37.77422142737229,-118.57476725690172,3396.9975328414293,3.1563973426818848,8.30480670928955,150.18368530273438,1739918373.6360028,-0.07031279802322388,-3.5762786865234375e-07,-3.5762786865234375e-07,68.53785705566406,0.0,0.0,0.0
37.77411940831304,-118.57469054966633,3397.552446299093,3.515674591064453,9.142936706542969,152.43392944335938,1739918373.895387,-0.07031279802322388,-3.5762786865234375e-07,-3.5762786865234375e-07,69.5701904296875,0.0,0.0,0.0
37.77402659372522,-118.57462297685163,3398.290933057033,3.9494237899780273,10.63901424407959,153.97589111328125,1739918374.1390946,-0.12500029802322388,-3.5762786865234375e-07,-3.5762786865234375e-07,70.62400817871094,0.0,0.0,0.0
37.77392671666275,-118.57455274990005,3399.2890045979607,4.240151405334473,11.541921615600586,155.0923309326172,1739918374.4021432,-0.2734377980232239,-0.3281252384185791,-3.5762786865234375e-07,71.392333984375,0.0,0.0,0.0
37.77383335686772,-118.5744892669859,3400.302246077803,3.8707661628723145,7.517640590667725,155.66371154785156,1739918374.651992,-0.3281252384185791,-0.4921876788139343,-3.5762786865234375e-07,72.04493713378906,0.0,0.0,0.0
37.77373945160585,-118.57442689577493,3401.306670399121,3.3180294036865234,3.325735569000244,155.77911376953125,1739918374.9021425,-0.2734377980232239,-0.2031252384185791,-3.5762786865234375e-07,72.53189086914062,0.0,0.0,0.0
37.77364713317828,-118.57436635203747,3402.2225858706815,3.71866512298584,1.8174805641174316,155.34341430664062,1739918375.1524158,-0.12500029802322388,0.007873594760894775,-3.5762786865234375e-07,72.82318115234375,0.0,0.0,0.0
37.77355416182688,-118.57430585393634,3403.107841977432,5.346226692199707,2.299558401107788,154.53128051757812,1739918375.4030626,-0.12500029802322388,0.18110203742980957,-3.5762786865234375e-07,72.84025573730469,0.0,0.0,0.0
37.77346015053955,-118.57424524923653,3404.071107227642,7.088939189910889,1.7876660823822021,153.3784942626953,1739918375.652131,-0.12500029802322388,0.02362161874771118,-3.5762786865234375e-07,72.72774505615234,0.0,0.0,0.0
37.77336395428027,-118.57418377852997,3405.101607310796,8.189257621765137,1.2622076272964478,151.89291381835938,1739918375.8669994,-0.1953127384185791,0.007873594760894775,-3.5762786865234375e-07,72.5601577758789,0.0,0.0,0.0
37.77326975660072,-118.57412387787555,3406.1203018164015,9.055943489074707,0.31345632672309875,150.313720703125,1739918376.1510332,-0.2578127980232239,-3.5762786865234375e-07,-3.5762786865234375e-07,72.15745544433594,0.0,0.0,0.0
37.773170222147925,-118.57406050932097,3407.2114350024453,9.683782577514648,-1.1969436407089233,148.88795471191406,1739918376.4069238,-0.2265627384185791,-3.5762786865234375e-07,-3.5762786865234375e-07,71.75788116455078,0.0,0.0,0.0
37.77308188934139,-118.57400385141024,3408.2244910858317,9.434333801269531,-1.4805084466934204,148.3361358642578,1739918376.6502888,-0.2734377980232239,-3.5762786865234375e-07,-3.5762786865234375e-07,71.64505767822266,0.0,0.0,0.0
37.77299684995001,-118.57394884900135,3409.2383921575915,8.988529205322266,-1.548545241355896,148.38906860351562,1739918376.886303,-0.08593779802322388,0.464566707611084,-3.5762786865234375e-07,71.80904388427734,0.0,0.0,0.0
37.77290690362914,-118.57389025309719,3410.25974228812,9.98088550567627,1.36638343334198,148.8242645263672,1739918377.1358118,-0.12500029802322388,-3.5762786865234375e-07,-3.5762786865234375e-07,72.0827865600586,0.0,0.0,0.0
37.77281979217002,-118.57383340292601,3411.231551728335,11.66035270690918,1.9805771112442017,149.62158203125,1739918377.3858726,-0.12500029802322388,0.23622018098831177,-3.5762786865234375e-07,71.9938735961914,0.0,0.0,0.0
37.772732651761956,-118.57377661755797,3412.276955120036,13.221752166748047,4.089827537536621,150.79022216796875,1739918377.6351483,-0.15625029802322388,0.3464564085006714,-3.5762786865234375e-07,71.3914794921875,0.0,0.0,0.0
37.77264755943863,-118.57372172369352,3413.455408105563,13.915018081665039,6.203470230102539,151.97488403320312,1739918377.8847568,-0.2265627384185791,0.14960592985153198,-3.5762786865234375e-07,70.44891357421875,0.0,0.0,0.0
37.77255348046118,-118.57366237680795,3415.004130017275,12.834166526794434,9.863142013549805,152.9779815673828,1739918378.1509666,-0.3671877384185791,0.4803147315979004,-3.5762786865234375e-07,69.26445770263672,0.0,0.0,0.0
37.77247142254995,-118.57361224105962,3416.4898011953514,10.255178451538086,13.652461051940918,153.23529052734375,1739918378.4012694,-0.6171876192092896,0.3149603605270386,-3.5762786865234375e-07,67.98059844970703,0.0,0.0,0.0
37.7723901974423,-118.57356402698574,3417.83953477595,6.684053421020508,17.38945770263672,153.44122314453125,1739918378.6633997,-0.03906285762786865,-3.5762786865234375e-07,-3.5762786865234375e-07,66.58697509765625,0.0,0.0,0.0
37.77230678515441,-118.57351573149606,3418.874075996366,6.097463130950928,18.60940170288086,154.78201293945312,1739918378.9098532,-0.07031279802322388,-3.5762786865234375e-07,-3.5762786865234375e-07,65.0560531616211,0.0,0.0,0.0
37.77222443302348,-118.57346982063204,3419.62660533586,6.934582710266113,19.345985412597656,156.6348114013672,1739918379.1540468,-0.4296877384185791,-0.4765626788139343,-3.5762786865234375e-07,63.349605560302734,0.0,0.0,0.0
37.772133480334354,-118.573421917608,3420.2774154381154,6.424382209777832,19.21152114868164,158.04139709472656,1739918379.4014213,-0.3281252384185791,-3.5762786865234375e-07,-3.5762786865234375e-07,61.799076080322266,0.0,0.0,0.0
37.77205101488189,-118.57338078972009,3420.6519534750933,4.402918338775635,20.122182846069336,158.40841674804688,1739918379.6624734,-0.2812502980232239,0.16535401344299316,-3.5762786865234375e-07,60.456241607666016,0.0,0.0,0.0
37.77196715129677,-118.57334058888621,3420.679378180181,2.743917942047119,22.832914352416992,158.6322479248047,1739918379.9059472,-0.2421877384185791,0.007873594760894775,-3.5762786865234375e-07,59.217018127441406,0.0,0.0,0.0
37.7718831067168,-118.57330201558666,3420.3508276507323,2.521698474884033,24.354921340942383,159.29705810546875,1739918380.1512735,-0.2109377384185791,0.08661377429962158,-3.5762786865234375e-07,58.36030197143555,0.0,0.0,0.0
37.77179234933335,-118.5732629372184,3419.7417696588973,2.5803956985473633,25.30424690246582,160.4481201171875,1739918380.4131138,-0.3984377384185791,-0.4218752384185791,-3.5762786865234375e-07,57.79537582397461,0.0,0.0,0.0
37.7717028496879,-118.57322757634196,3419.0260921717745,0.8175665736198425,22.17901039123535,161.51756286621094,1739918380.6702576,-0.4296877384185791,-0.05468785762786865,-3.5762786865234375e-07,57.36869430541992,0.0,0.0,0.0
37.771619748862776,-118.57319716472826,3418.238993543699,-2.1756703853607178,20.98880958557129,162.57293701171875,1739918380.9033048,-0.4609376788139343,-0.2734377980232239,-3.5762786865234375e-07,57.20462417602539,0.0,0.0,0.0
37.771526749411834,-118.57316528108319,3417.129591200988,-5.692203998565674,18.594972610473633,163.94699096679688,1739918381.1620483,-0.14062529802322388,-3.5762786865234375e-07,-3.5762786865234375e-07,57.245967864990234,0.0,0.0,0.0
37.77143879932206,-118.57313674661158,3415.773786987973,-6.988016128540039,17.121938705444336,165.76788330078125,1739918381.4034994,0.03936970233917236,-3.5762786865234375e-07,-3.5762786865234375e-07,57.65467071533203,0.0,0.0,0.0
37.77134328877957,-118.57310764129201,3414.022754329876,-5.223216533660889,16.80601692199707,168.28042602539062,1739918381.664184,0.07086575031280518,-0.10156279802322388,-3.5762786865234375e-07,58.520999908447266,0.0,0.0,0.0
37.771248340773916,-118.57308146849428,3412.2543960063163,-2.4513936042785645,16.991628646850586,170.797607421875,1739918381.9192834,-3.5762786865234375e-07,-3.5762786865234375e-07,-3.5762786865234375e-07,59.764808654785156,0.0,0.0,0.0
37.771153837337465,-118.57305902581217,3410.70523584862,-1.027817964553833,16.635478973388672,172.4039306640625,1739918382.1650457,-3.5762786865234375e-07,-3.5762786865234375e-07,-3.5762786865234375e-07,60.848567962646484,0.0,0.0,0.0
37.77105763580649,-118.573039968936,3409.408178968801,-0.898111879825592,15.094650268554688,173.0562744140625,1739918382.4224453,-0.17968779802322388,-0.2578127980232239,-3.5762786865234375e-07,62.26517105102539,0.0,0.0,0.0
37.770966635278945,-118.57302492120728,3408.4247859017364,-1.776553988456726,12.757654190063477,173.33392333984375,1739918382.65351,-0.03906285762786865,-3.5762786865234375e-07,-3.5762786865234375e-07,63.309627532958984,0.0,0.0,0.0
37.770860982507,-118.57301019305216,3407.4849376232814,-2.3771047592163086,11.48848819732666,173.77755737304688,1739918382.9223292,-0.2968752980232239,-0.4765626788139343,-3.5762786865234375e-07,64.54549407958984,0.0,0.0,0.0
37.77075817275988,-118.57299811903269,3406.7101836932225,-3.251016616821289,7.822145462036133,174.06063842773438,1739918383.180179,-3.5762786865234375e-07,-3.5762786865234375e-07,-3.5762786865234375e-07,65.40571594238281,0.0,0.0,0.0
37.77066221492732,-118.5729881563517,3406.0274742858887,-2.58870792388916,6.914453029632568,174.4643096923828,1739918383.424855,-3.5762786865234375e-07,-3.5762786865234375e-07,-3.5762786865234375e-07,65.70092010498047,0.0,0.0,0.0
37.77055748845264,-118.5729783410978,3405.3257285754403,-1.3245302438735962,6.099130630493164,174.91946411132812,1739918383.6802752,-0.08593779802322388,-3.5762786865234375e-07,-3.5762786865234375e-07,65.27826690673828,0.0,0.0,0.0
37.770460503465046,-118.5729700079708,3404.729894502952,-0.7762827277183533,4.603753566741943,175.476318359375,1739918383.9244068,-0.03906285762786865,-3.5762786865234375e-07,-3.5762786865234375e-07,64.5423812866211,0.0,0.0,0.0
37.770354667520564,-118.5729615603882,3404.136444097413,-0.2292182296514511,3.2248659133911133,176.2162628173828,1739918384.1793866,-0.14062529802322388,-0.08593779802322388,-3.5762786865234375e-07,64.13365173339844,0.0,0.0,0.0
37.77025014396724,-118.57295377564922,3403.584956619423,-0.2218412309885025,1.3628594875335693,176.8350372314453,1739918384.4361963,-0.03906285762786865,-3.5762786865234375e-07,-3.5762786865234375e-07,63.948944091796875,0.0,0.0,0.0
37.770149786089526,-118.57294678454183,3403.07716831138,0.25993484258651733,1.1386746168136597,176.93052673339844,1739918384.6801047,-0.007812857627868652,-3.5762786865234375e-07,-3.5762786865234375e-07,63.9989128112793,0.0,0.0,0.0
37.77004488953427,-118.57293988067501,3402.5604314080533,1.5169219970703125,1.6836795806884766,176.369873046875,1739918384.936219,-0.05468785762786865,0.13385790586471558,-3.5762786865234375e-07,63.952613830566406,0.0,0.0,0.0
37.769943814894745,-118.57293350267572,3402.137970688432,2.8107552528381348,0.9974246621131897,175.47198486328125,1739918385.1802025,-0.10937529802322388,-3.5762786865234375e-07,-3.5762786865234375e-07,63.814632415771484,0.0,0.0,0.0
37.76984081771781,-118.57292704769664,3401.8307159206047,2.7107505798339844,-1.4768781661987305,174.60264587402344,1739918385.436878,-0.09375029802322388,0.007873594760894775,-3.5762786865234375e-07,63.43763732910156,0.0,0.0,0.0
37.76973695137227,-118.57292015291944,3401.6173418593194,2.0882480144500732,-2.6966676712036133,174.03451538085938,1739918385.6809793,-0.09375029802322388,-3.5762786865234375e-07,-3.5762786865234375e-07,63.19689178466797,0.0,0.0,0.0
37.76963405196081,-118.57291278781727,3401.4145739631194,1.9566409587860107,-3.6483802795410156,173.67723083496094,1739918385.9375072,-0.2265627384185791,0.4960627555847168,-3.5762786865234375e-07,63.34204864501953,0.0,0.0,0.0
37.76952757666131,-118.57290464063718,3401.2387855566058,1.8776577711105347,-1.3403668403625488,173.23158264160156,1739918386.1690338,-0.17187529802322388,0.007873594760894775,-3.5762786865234375e-07,63.736270904541016,0.0,0.0,0.0
37.769425287582386,-118.57289660186599,3401.1348525523244,1.730577826499939,-0.7410308122634888,172.4405975341797,1739918386.4362469,-0.14062529802322388,-3.5762786865234375e-07,-3.5762786865234375e-07,64.28540802001953,0.0,0.0,0.0
37.76931726470499,-118.5728879135011,3401.054365951464,1.7246475219726562,0.10943587124347687,171.6152801513672,1739918386.694877,-0.14062529802322388,-3.5762786865234375e-07,-3.5762786865234375e-07,64.54513549804688,0.0,0.0,0.0
37.76921853405693,-118.57287970941927,3400.9888504356813,1.884459137916565,0.15688300132751465,171.14199829101562,1739918386.936355,-0.12500029802322388,-3.5762786865234375e-07,-3.5762786865234375e-07,64.70891571044922,0.0,0.0,0.0
37.76911340998963,-118.57287065389026,3400.946182210437,2.2029712200164795,-0.3610808849334717,171.08840942382812,1739918387.195728,-0.17187529802322388,0.377952516078949,-3.5762786865234375e-07,64.79963684082031,0.0,0.0,0.0
37.76901578628967,-118.5728620143983,3400.9205039935173,2.4057183265686035,0.5403643846511841,171.25148010253906,1739918387.436116,-0.09375029802322388,-3.5762786865234375e-07,-3.5762786865234375e-07,64.87547302246094,0.0,0.0,0.0
37.76890655851216,-118.57285230037513,3400.903715672149,2.4874351024627686,-0.12721052765846252,171.43690490722656,1739918387.6948712,-0.3125002980232239,-3.5762786865234375e-07,-3.5762786865234375e-07,64.7169189453125,0.0,0.0,0.0
37.76880914658163,-118.57284355372757,3400.91736733303,1.6466588973999023,-2.008244037628174,171.50421142578125,1739918387.935852,-0.14062529802322388,-3.5762786865234375e-07,-3.5762786865234375e-07,64.36722564697266,0.0,0.0,0.0
37.76870118034586,-118.57283349468334,3400.93468595672,0.8604654669761658,-4.908799648284912,171.4673309326172,1739918388.193181,-0.3281252384185791,-3.5762786865234375e-07,-3.5762786865234375e-07,64.18180847167969,0.0,0.0,0.0
37.76859099124512,-118.57282256823864,3400.935487763536,-0.20629122853279114,-5.283699989318848,171.1929168701172,1739918388.448398,-0.09375029802322388,0.43307065963745117,-3.5762786865234375e-07,64.18987274169922,0.0,0.0,0.0
37.768493294187564,-118.5728123270298,3400.849256405415,0.08765975385904312,-2.0427474975585938,170.42013549804688,1739918388.6893637,-0.09375029802322388,0.18110203742980957,-3.5762786865234375e-07,64.21893310546875,0.0,0.0,0.0
37.768383734258705,-118.57280048121686,3400.6974952638516,1.2515079975128174,-0.34748658537864685,169.31619262695312,1739918388.9462337,-0.08593779802322388,-3.5762786865234375e-07,-3.5762786865234375e-07,64.34747314453125,0.0,0.0,0.0
37.768284832510496,-118.57278957473783,3400.622776799705,2.2486722469329834,-1.1653892993927002,168.37637329101562,1739918389.1860871,-0.08593779802322388,-3.5762786865234375e-07,-3.5762786865234375e-07,64.15382385253906,0.0,0.0,0.0
37.76817457262962,-118.57277701384581,3400.6941982421495,2.2875821590423584,-0.38988813757896423,167.56126403808594,1739918389.444552,-0.1953127384185791,0.3622044324874878,-3.5762786865234375e-07,63.584716796875,0.0,0.0,0.0
37.76807565959186,-118.57276539991986,3400.839063196454,1.327221155166626,0.6667616367340088,166.93678283691406,1739918389.6858654,-0.15625029802322388,0.14960592985153198,-3.5762786865234375e-07,63.13543701171875,0.0,0.0,0.0
37.767961535006556,-118.57275157629739,3401.004435439818,0.5934902429580688,0.7231876850128174,166.8032684326172,1739918389.9555485,-0.12500029802322388,0.03936970233917236,-3.5762786865234375e-07,62.98933029174805,0.0,0.0,0.0
37.7678560887991,-118.57273825434025,3401.074428190052,0.6107606291770935,-0.535689651966095,167.60610961914062,1739918390.197265,-0.10937529802322388,0.03936970233917236,-3.5762786865234375e-07,62.83184051513672,0.0,0.0,0.0
37.76775252391494,-118.57272456998236,3401.0971568864666,1.0377874374389648,-0.7971576452255249,169.18511962890625,1739918390.4515016,-0.07031279802322388,-3.5762786865234375e-07,-3.5762786865234375e-07,62.764625549316406,0.0,0.0,0.0
37.76764205918523,-118.5727094803756,3401.117333202714,2.047025680541992,-0.3004566729068756,171.24600219726562,1739918390.7061148,-0.023437857627868652,-3.5762786865234375e-07,-3.5762786865234375e-07,62.92631912231445,0.0,0.0,0.0
37.76754857308949,-118.57269652210083,3401.17786675424,3.1897075176239014,-0.2661404013633728,172.9525604248047,1739918390.9359703,-0.023437857627868652,-3.5762786865234375e-07,-3.5762786865234375e-07,63.39639663696289,0.0,0.0,0.0
37.767434331613096,-118.57268071539801,3401.3711795579156,4.695801734924316,0.39590710401535034,174.5492401123047,1739918391.2033224,-0.2578127980232239,-3.5762786865234375e-07,-3.5762786865234375e-07,64.16161346435547,0.0,0.0,0.0
37.76733851948095,-118.57266774164974,3401.66304184349,4.63640022277832,1.1829942464828491,175.2347869873047,1739918391.4360342,-0.03906285762786865,-3.5762786865234375e-07,-3.5762786865234375e-07,64.85738372802734,0.0,0.0,0.0
37.76722624423368,-118.57265305912688,3402.0780062648287,4.9528656005859375,1.4803955554962158,175.04071044921875,1739918391.7080498,-0.14062529802322388,-3.5762786865234375e-07,-3.5762786865234375e-07,65.64083862304688,0.0,0.0,0.0
37.76712731245694,-118.57264049314804,3402.461329961316,5.474425792694092,1.0410315990447998,174.42816162109375,1739918391.9537587,-0.03906285762786865,-3.5762786865234375e-07,-3.5762786865234375e-07,65.91228485107422,0.0,0.0,0.0
37.76702786859772,-118.57262815427575,3402.857669177728,6.562650203704834,0.7544915080070496,173.55703735351562,1739918392.202124,-0.2812502980232239,-3.5762786865234375e-07,-3.5762786865234375e-07,65.94236755371094,0.0,0.0,0.0
37.766921620621204,-118.57261517703246,3403.377820707565,6.423070430755615,0.14045041799545288,172.42202758789062,1739918392.4619503,-0.3437502384185791,-3.5762786865234375e-07,-3.5762786865234375e-07,65.93162536621094,0.0,0.0,0.0
37.766824152061524,-118.57260322728568,3403.9635584709854,4.991537570953369,-1.3118826150894165,171.44459533691406,1739918392.706089,-0.17968779802322388,-3.5762786865234375e-07,-3.5762786865234375e-07,66.0150375366211,0.0,0.0,0.0
37.76672587215885,-118.57259079787978,3404.5579591053693,3.5828306674957275,-2.9482526779174805,170.81170654296875,1739918392.956211,-0.17187529802322388,-3.5762786865234375e-07,-3.5762786865234375e-07,65.99078369140625,0.0,0.0,0.0
37.766627577696475,-118.57257778446834,3405.054761731015,3.1677112579345703,-3.588707208633423,170.5992889404297,1739918393.2104216,-0.03906285762786865,-3.5762786865234375e-07,-3.5762786865234375e-07,65.77084350585938,0.0,0.0,0.0
37.766530976233526,-118.57256428905663,3405.500837036437,4.212643623352051,-3.90287184715271,170.5915985107422,1739918393.4546869,-0.03906285762786865,0.08661377429962158,-3.5762786865234375e-07,65.41138458251953,0.0,0.0,0.0
37.76643295178542,-118.57254969882803,3406.0110259868493,5.345905303955078,-2.6212611198425293,170.9150848388672,1739918393.702342,-0.08593779802322388,0.14960592985153198,-3.5762786865234375e-07,65.02317810058594,0.0,0.0,0.0
37.76632983953293,-118.57253354992652,3406.603108666479,5.829596519470215,-0.9424250721931458,171.5987548828125,1739918393.963767,-0.2968752980232239,0.18110203742980957,-3.5762786865234375e-07,64.51939392089844,0.0,0.0,0.0
37.766232788954035,-118.5725179449148,3407.171805028586,5.220996856689453,0.876507043838501,172.43157958984375,1739918394.209094,-0.15625029802322388,0.13385790586471558,-3.5762786865234375e-07,63.81062316894531,0.0,0.0,0.0
37.76613850845755,-118.57250267886931,3407.6739529189317,4.715394496917725,2.0032413005828857,173.2545928955078,1739918394.4532115,-0.3281252384185791,0.07086575031280518,-3.5762786865234375e-07,62.87839126586914,0.0,0.0,0.0
37.7660349590648,-118.57248603420015,3408.172498767268,3.4702000617980957,2.7099835872650146,174.0996856689453,1739918394.714127,-0.3281252384185791,0.10236185789108276,-3.5762786865234375e-07,61.914798736572266,0.0,0.0,0.0
37.7659348531643,-118.57247032704836,3408.5896749585245,1.5530149936676025,4.181880474090576,174.6302490234375,1739918394.9711258,-0.3437502384185791,-3.5762786865234375e-07,-3.5762786865234375e-07,60.92424011230469,0.0,0.0,0.0
37.76584335178082,-118.57245657087549,3408.8421310518506,-0.4986349046230316,5.422096252441406,174.56158447265625,1739918395.2024038,-0.3828127384185791,-3.5762786865234375e-07,-3.5762786865234375e-07,60.45604705810547,0.0,0.0,0.0
37.76574086746815,-118.57244195371428,3408.856077082083,-2.704655170440674,5.311474800109863,173.7950897216797,1739918395.461444,-0.2421877384185791,-0.3437502384185791,-3.5762786865234375e-07,60.211456298828125,0.0,0.0,0.0
37.76563992998604,-118.57242818834267,3408.49726527253,-2.869337797164917,3.625924825668335,172.6458282470703,1739918395.7189918,-3.5762786865234375e-07,-3.5762786865234375e-07,-3.5762786865234375e-07,60.26919174194336,0.0,0.0,0.0
37.76554863990616,-118.57241603727456,3407.9250981055475,-0.6653252840042114,3.6005868911743164,171.71017456054688,1739918395.9521434,-3.5762786865234375e-07,-3.5762786865234375e-07,-3.5762786865234375e-07,60.50358963012695,0.0,0.0,0.0
37.76544019817726,-118.5724018934827,3407.1529878787487,2.494394540786743,3.072669744491577,170.99951171875,1739918396.225543,-0.05468785762786865,-0.007812857627868652,-3.5762786865234375e-07,60.60884475708008,0.0,0.0,0.0
37.765343158246544,-118.5723895064725,3406.512410834959,3.674588203430176,1.6492966413497925,170.71246337890625,1739918396.4695399,-0.14062529802322388,-3.5762786865234375e-07,-3.5762786865234375e-07,60.44423294067383,0.0,0.0,0.0
37.765243144696626,-118.57237682097194,3405.872338603689,3.250286102294922,0.8431815505027771,170.7478790283203,1739918396.7022026,-0.2734377980232239,-3.5762786865234375e-07,-3.5762786865234375e-07,60.27942657470703,0.0,0.0,0.0
37.76514046441961,-118.57236388882448,3405.171792262866,2.1828746795654297,0.38946884870529175,170.85079956054688,1739918396.9762223,-0.08593779802322388,-3.5762786865234375e-07,-3.5762786865234375e-07,60.282405853271484,0.0,0.0,0.0
37.76504703395525,-118.57235228411324,3404.450232763795,2.1674394607543945,0.2961984872817993,170.63333129882812,1739918397.2190657,-0.023437857627868652,-3.5762786865234375e-07,-3.5762786865234375e-07,60.43714904785156,0.0,0.0,0.0
37.76494385103031,-118.57233960106221,3403.632954720854,3.4095563888549805,0.9816799759864807,170.09327697753906,1739918397.4803956,-0.007812857627868652,-3.5762786865234375e-07,-3.5762786865234375e-07,60.590736389160156,0.0,0.0,0.0
37.764846186587164,-118.57232772617658,3403.000014432148,4.332870006561279,0.869196355342865,169.4538116455078,1739918397.7264373,-0.007812857627868652,-3.5762786865234375e-07,-3.5762786865234375e-07,60.57034683227539,0.0,0.0,0.0
